[
  {
    "bidId": "BID-1001",
    "title": "Citywide Grounds Maintenance Services",
    "agency": "City of Rome",
    "location": {"city": "Rome", "county": "Floyd", "state": "GA"},
    "dueDate": "2026-02-20",
    "postedDate": "2026-02-02",
    "category": "Grounds Maintenance",
    "sourceId": "nwga-cities",
    "sourceName": "Northwest GA City Bids",
    "sourceUrl": "https://example.gov/nwga/cities",
    "areaTags": ["NWGA", "GA", "Rome"]
  },
  {
    "bidId": "BID-1002",
    "title": "Right-of-Way Brush Cutting",
    "agency": "Rome Utilities",
    "location": {"city": "Rome", "county": "Floyd", "state": "GA"},
    "dueDate": "2026-03-05",
    "postedDate": "2026-02-01",
    "category": "Brush Cutting",
    "sourceId": "rome-utilities",
    "sourceName": "Rome Utilities Procurement",
    "sourceUrl": "https://example.gov/rome/utilities",
    "areaTags": ["NWGA", "GA", "Rome"]
  },
  {
    "bidId": "BID-1003",
    "title": "Parks Turf Maintenance",
    "agency": "City of Cartersville",
    "location": {"city": "Cartersville", "county": "Bartow", "state": "GA"},
    "dueDate": "2026-02-18",
    "postedDate": "2026-01-30",
    "category": "Turf Maintenance",
    "sourceId": "nwga-cities",
    "sourceName": "Northwest GA City Bids",
    "sourceUrl": "https://example.gov/nwga/cities",
    "areaTags": ["NWGA", "GA", "Cartersville"]
  },
  {
    "bidId": "BID-1004",
    "title": "Cemetery Grounds Mowing",
    "agency": "City of Cedartown",
    "location": {"city": "Cedartown", "county": "Polk", "state": "GA"},
    "dueDate": "2026-02-14",
    "postedDate": "2026-02-03",
    "category": "Cemetery Maintenance",
    "sourceId": "nwga-cities",
    "sourceName": "Northwest GA City Bids",
    "sourceUrl": "https://example.gov/nwga/cities",
    "areaTags": ["NWGA", "GA", "Cedartown"]
  },
  {
    "bidId": "BID-1005",
    "title": "County Park Lawn Care",
    "agency": "Heard County",
    "location": {"city": "Franklin", "county": "Heard County", "state": "GA"},
    "dueDate": "2026-02-28",
    "postedDate": "2026-02-05",
    "category": "Lawn Care",
    "sourceId": "heard-county",
    "sourceName": "Heard County Purchasing",
    "sourceUrl": "https://example.gov/heard/purchasing",
    "areaTags": ["GA", "Heard County"]
  },
  {
    "bidId": "BID-1006",
    "title": "Downtown Streetscape Landscaping",
    "agency": "City of Dalton",
    "location": {"city": "Dalton", "county": "Whitfield", "state": "GA"},
    "dueDate": "2026-03-01",
    "postedDate": "2026-02-01",
    "category": "Landscaping",
    "sourceId": "ga-proc-portal",
    "sourceName": "Georgia Procurement Registry",
    "sourceUrl": "https://example.gov/ga/procurement",
    "areaTags": ["NWGA", "GA", "Dalton"]
  },
  {
    "bidId": "BID-1007",
    "title": "Municipal Mowing Services",
    "agency": "City of Calhoun",
    "location": {"city": "Calhoun", "county": "Gordon", "state": "GA"},
    "dueDate": "2026-02-16",
    "postedDate": "2026-02-04",
    "category": "Mowing",
    "sourceId": "nwga-cities",
    "sourceName": "Northwest GA City Bids",
    "sourceUrl": "https://example.gov/nwga/cities",
    "areaTags": ["NWGA", "GA", "Calhoun"]
  },
  {
    "bidId": "BID-1008",
    "title": "Weed Eating & Debris Cleanup",
    "agency": "City of Carrollton",
    "location": {"city": "Carrollton", "county": "Carroll", "state": "GA"},
    "dueDate": "2026-03-08",
    "postedDate": "2026-02-03",
    "category": "Debris Cleanup",
    "sourceId": "carrollton-bids",
    "sourceName": "Carrollton Bid Board",
    "sourceUrl": "https://example.gov/carrollton/bids",
    "areaTags": ["NWGA", "GA", "Carrollton"]
  },
  {
    "bidId": "BID-1009",
    "title": "Park Maintenance Contract",
    "agency": "City of Acworth",
    "location": {"city": "Acworth", "county": "Cobb", "state": "GA"},
    "dueDate": "2026-02-22",
    "postedDate": "2026-02-05",
    "category": "Parks",
    "sourceId": "ga-proc-portal",
    "sourceName": "Georgia Procurement Registry",
    "sourceUrl": "https://example.gov/ga/procurement",
    "areaTags": ["NWGA", "GA", "Acworth"]
  },
  {
    "bidId": "BID-1010",
    "title": "Roadside Turf Maintenance",
    "agency": "Regional Transportation District",
    "location": {"city": "Bremen", "county": "Haralson", "state": "GA"},
    "dueDate": "2026-03-12",
    "postedDate": "2026-02-02",
    "category": "Right-of-Way",
    "sourceId": "regional-transpo",
    "sourceName": "Regional Transportation District",
    "sourceUrl": "https://example.gov/regional/transportation",
    "areaTags": ["NWGA", "GA", "Bremen"]
  },
  {
    "bidId": "BID-1011",
    "title": "Cedar Bluff Grounds Maintenance",
    "agency": "Town of Cedar Bluff",
    "location": {"city": "Cedar Bluff", "county": "Cherokee", "state": "AL"},
    "dueDate": "2026-02-26",
    "postedDate": "2026-02-04",
    "category": "Grounds Maintenance",
    "sourceId": "cedar-bluff",
    "sourceName": "Cedar Bluff Procurement",
    "sourceUrl": "https://example.gov/cedarbluff/procurement",
    "areaTags": ["AL", "Cedar Bluff"]
  },
  {
    "bidId": "BID-1012",
    "title": "Centre Parks Mowing",
    "agency": "City of Centre",
    "location": {"city": "Centre", "county": "Cherokee", "state": "AL"},
    "dueDate": "2026-03-04",
    "postedDate": "2026-02-01",
    "category": "Mowing",
    "sourceId": "centre-bids",
    "sourceName": "Centre City Bids",
    "sourceUrl": "https://example.gov/centre/bids",
    "areaTags": ["AL", "Centre"]
  },
  {
    "bidId": "BID-1013",
    "title": "Summerville Cemetery Maintenance",
    "agency": "City of Summerville",
    "location": {"city": "Summerville", "county": "Chattooga", "state": "GA"},
    "dueDate": "2026-02-24",
    "postedDate": "2026-02-03",
    "category": "Cemetery Maintenance",
    "sourceId": "nwga-cities",
    "sourceName": "Northwest GA City Bids",
    "sourceUrl": "https://example.gov/nwga/cities",
    "areaTags": ["NWGA", "GA", "Summerville"]
  },
  {
    "bidId": "BID-1014",
    "title": "Lawn Care & Weed Eating",
    "agency": "City of Chatsworth",
    "location": {"city": "Chatsworth", "county": "Murray", "state": "GA"},
    "dueDate": "2026-02-19",
    "postedDate": "2026-02-05",
    "category": "Weed Eating",
    "sourceId": "nwga-cities",
    "sourceName": "Northwest GA City Bids",
    "sourceUrl": "https://example.gov/nwga/cities",
    "areaTags": ["NWGA", "GA", "Chatsworth"]
  }
]
